[
    {
       "id":"00AK",
       "icao":"00AK",
       "iata":"",
       "name":"Lowell Field",
       "city":"Anchor Point",
       "state":"Alaska",
       "country":"US",
       "elevation":450,
       "lat":59.94919968,
       "lon":-151.695999146,
       "tz":"America/Anchorage"
    },
    {
       "id":"00AL",
       "icao":"00AL",
       "iata":"",
       "name":"Epps Airpark",
       "city":"Harvest",
       "state":"Alabama",
       "country":"US",
       "elevation":820,
       "lat":34.8647994995,
       "lon":-86.7703018188,
       "tz":"America/Chicago"
    },
    {
       "id":"00AZ",
       "icao":"00AZ",
       "iata":"",
       "name":"Cordes Airport",
       "city":"Cordes",
       "state":"Arizona",
       "country":"US",
       "elevation":3810,
       "lat":34.3055992126,
       "lon":-112.1650009155,
       "tz":"America/Phoenix"
    },
    {
       "id":"00CA",
       "icao":"00CA",
       "iata":"",
       "name":"Goldstone /Gts/ Airport",
       "city":"Barstow",
       "state":"California",
       "country":"US",
       "elevation":3038,
       "lat":35.3504981995,
       "lon":-116.888000488,
       "tz":"America/Los_Angeles"
    },
    {
       "id":"00CL",
       "icao":"00CL",
       "iata":"",
       "name":"Williams Ag Airport",
       "city":"Biggs",
       "state":"California",
       "country":"US",
       "elevation":87,
       "lat":39.42718888,
       "lon":-121.76342777,
       "tz":"America/Los_Angeles"
    },
    {
       "id":"00CO",
       "icao":"00CO",
       "iata":"",
       "name":"Cass Field",
       "city":"Briggsdale",
       "state":"Colorado",
       "country":"US",
       "elevation":4830,
       "lat":40.6222000122,
       "lon":-104.34400177,
       "tz":"America/Denver"
    },
    {
       "id":"00FA",
       "icao":"00FA",
       "iata":"",
       "name":"Grass Patch Airport",
       "city":"Bushnell",
       "state":"Florida",
       "country":"US",
       "elevation":53,
       "lat":28.6455001831,
       "lon":-82.21900177,
       "tz":"America/New_York"
    },
    {
       "id":"00FL",
       "icao":"00FL",
       "iata":"",
       "name":"River Oak Airport",
       "city":"Okeechobee",
       "state":"Florida",
       "country":"US",
       "elevation":35,
       "lat":27.2308998108,
       "lon":-80.9692001343,
       "tz":"America/New_York"
    },
    {
       "id":"00GA",
       "icao":"00GA",
       "iata":"",
       "name":"Lt World Airport",
       "city":"Lithonia",
       "state":"Georgia",
       "country":"US",
       "elevation":700,
       "lat":33.7675018311,
       "lon":-84.0682983398,
       "tz":"America/New_York"
    },
    {
       "id":"00ID",
       "icao":"00ID",
       "iata":"",
       "name":"Delta Shores Airport",
       "city":"Clark Fork",
       "state":"Idaho",
       "country":"US",
       "elevation":2064,
       "lat":48.1453018188,
       "lon":-116.2139968872,
       "tz":"America/Los_Angeles"
    },
    {
       "id":"00IL",
       "icao":"00IL",
       "iata":"",
       "name":"Hammer Airport",
       "city":"Polo",
       "state":"Illinois",
       "country":"US",
       "elevation":840,
       "lat":41.9784011841,
       "lon":-89.5604019165,
       "tz":"America/Chicago"
    },
    {
       "id":"00IS",
       "icao":"00IS",
       "iata":"",
       "name":"Hayenga's Cant Find Farms Airport",
       "city":"Kings",
       "state":"Illinois",
       "country":"US",
       "elevation":820,
       "lat":40.0256004333,
       "lon":-89.1229019165,
       "tz":"America/Chicago"
    },
    {
       "id":"00KS",
       "icao":"00KS",
       "iata":"",
       "name":"Hayden Farm Airport",
       "city":"Gardner",
       "state":"Kansas",
       "country":"US",
       "elevation":1100,
       "lat":38.7277984619,
       "lon":-94.9304962158,
       "tz":"America/Chicago"
    },
    {
       "id":"00KY",
       "icao":"00KY",
       "iata":"",
       "name":"Robbins Roost Airport",
       "city":"Stanford",
       "state":"Kentucky",
       "country":"US",
       "elevation":1265,
       "lat":37.4094009399,
       "lon":-84.6196975708,
       "tz":"America/New_York"
    },
    {
       "id":"00LS",
       "icao":"00LS",
       "iata":"",
       "name":"Lejeune Airport",
       "city":"Esterwood",
       "state":"Louisiana",
       "country":"US",
       "elevation":12,
       "lat":30.1362991333,
       "lon":-92.429397583,
       "tz":"America/Chicago"
    },
    {
       "id":"00MD",
       "icao":"00MD",
       "iata":"",
       "name":"Slater Field",
       "city":"Federalsburg",
       "state":"Maryland",
       "country":"US",
       "elevation":45,
       "lat":38.7570991516,
       "lon":-75.7537994385,
       "tz":"America/New_York"
    },
    {
       "id":"00MN",
       "icao":"00MN",
       "iata":"",
       "name":"Battle Lake Municipal Airport",
       "city":"Battle Lake",
       "state":"Minnesota",
       "country":"US",
       "elevation":1365,
       "lat":46.2999992371,
       "lon":-95.700302124,
       "tz":"America/Chicago"
    },
    {
       "id":"00MO",
       "icao":"00MO",
       "iata":"",
       "name":"Cooper Flying Service Airport",
       "city":"Alba",
       "state":"Missouri",
       "country":"US",
       "elevation":970,
       "lat":37.2028007507,
       "lon":-94.412399292,
       "tz":"America/Chicago"
    },
    {
       "id":"00MT",
       "icao":"00MT",
       "iata":"",
       "name":"Sands Ranch Airport",
       "city":"Havre",
       "state":"Montana",
       "country":"US",
       "elevation":2600,
       "lat":48.5374984741,
       "lon":-109.7050018311,
       "tz":"America/Denver"
    },
    {
       "id":"00NC",
       "icao":"00NC",
       "iata":"",
       "name":"North Raleigh Airport",
       "city":"Louisburg",
       "state":"North Carolina",
       "country":"US",
       "elevation":348,
       "lat":36.0852012634,
       "lon":-78.3713989258,
       "tz":"America/New_York"
    },
    {
       "id":"00NY",
       "icao":"00NY",
       "iata":"",
       "name":"Weiss Airfield",
       "city":"West Bloomfield",
       "state":"New York",
       "country":"US",
       "elevation":1000,
       "lat":42.900100708,
       "lon":-77.4997024536,
       "tz":"America/New_York"
    },
    {
       "id":"00OH",
       "icao":"00OH",
       "iata":"",
       "name":"Exit 3 Airport",
       "city":"Wauseon",
       "state":"Ohio",
       "country":"US",
       "elevation":785,
       "lat":41.5909004211,
       "lon":-84.1421966553,
       "tz":"America/New_York"
    },
    {
       "id":"00PN",
       "icao":"00PN",
       "iata":"",
       "name":"Ferrell Field",
       "city":"Mercer",
       "state":"Pennsylvania",
       "country":"US",
       "elevation":1301,
       "lat":41.2995,
       "lon":-80.211111,
       "tz":"America/New_York"
    },
    {
       "id":"00PS",
       "icao":"00PS",
       "iata":"",
       "name":"Thomas Field",
       "city":"Loysville",
       "state":"Pennsylvania",
       "country":"US",
       "elevation":815,
       "lat":40.3777999878,
       "lon":-77.3653030396,
       "tz":"America/New_York"
    },
    {
       "id":"00SC",
       "icao":"00SC",
       "iata":"",
       "name":"Flying O Airport",
       "city":"Sumter",
       "state":"South Carolina",
       "country":"US",
       "elevation":150,
       "lat":34.0093994141,
       "lon":-80.2671966553,
       "tz":"America/New_York"
    },
    {
       "id":"00TN",
       "icao":"00TN",
       "iata":"",
       "name":"Ragsdale Road Airport",
       "city":"Manchester",
       "state":"Tennessee",
       "country":"US",
       "elevation":1100,
       "lat":35.5158996582,
       "lon":-85.9535980225,
       "tz":"America/Chicago"
    },
    {
       "id":"00TS",
       "icao":"00TS",
       "iata":"",
       "name":"Alpine Range Airport",
       "city":"Everman",
       "state":"Texas",
       "country":"US",
       "elevation":670,
       "lat":32.6076011658,
       "lon":-97.2419967651,
       "tz":"America/Chicago"
    },
    {
       "id":"00TX",
       "icao":"00TX",
       "iata":"",
       "name":"Delva Field",
       "city":"Van",
       "state":"Texas",
       "country":"US",
       "elevation":545,
       "lat":32.544452,
       "lon":-95.67313,
       "tz":"America/Chicago"
    },
    {
       "id":"00VA",
       "icao":"00VA",
       "iata":"",
       "name":"Vaughan Airport",
       "city":"Alton",
       "state":"Virginia",
       "country":"US",
       "elevation":551,
       "lat":36.57600021,
       "lon":-78.9991684,
       "tz":"America/New_York"
    },
    {
       "id":"00VI",
       "icao":"00VI",
       "iata":"",
       "name":"Groundhog Mountain Airport",
       "city":"Hillsville",
       "state":"Virginia",
       "country":"US",
       "elevation":2680,
       "lat":36.6632995605,
       "lon":-80.49949646,
       "tz":"America/New_York"
    },
    {
       "id":"00WA",
       "icao":"00WA",
       "iata":"",
       "name":"Howell Airport",
       "city":"Longbranch",
       "state":"Washington",
       "country":"US",
       "elevation":150,
       "lat":47.1783981323,
       "lon":-122.7720031738,
       "tz":"America/Los_Angeles"
    },
    {
       "id":"00WI",
       "icao":"00WI",
       "iata":"",
       "name":"Northern Lite Airport",
       "city":"Waupaca",
       "state":"Wisconsin",
       "country":"US",
       "elevation":860,
       "lat":44.3042984009,
       "lon":-89.0501022339,
       "tz":"America/Chicago"
    },
    {
       "id":"00WN",
       "icao":"00WN",
       "iata":"",
       "name":"Hawks Run Airport",
       "city":"Asotin",
       "state":"Washington",
       "country":"US",
       "elevation":2900,
       "lat":46.25,
       "lon":-117.2490005493,
       "tz":"America/Los_Angeles"
    },
    {
       "id":"00WV",
       "icao":"00WV",
       "iata":"",
       "name":"Lazy J. Aerodrome",
       "city":"Beverly",
       "state":"West Virginia",
       "country":"US",
       "elevation":2060,
       "lat":38.8288993835,
       "lon":-79.8660964966,
       "tz":"America/New_York"
    },
    {
       "id":"00XS",
       "icao":"00XS",
       "iata":"",
       "name":"L P Askew Farms Airport",
       "city":"O'Donnell",
       "state":"Texas",
       "country":"US",
       "elevation":3110,
       "lat":33.0334014893,
       "lon":-101.9339981079,
       "tz":"America/Chicago"
    },
    {
       "id":"01AL",
       "icao":"01AL",
       "iata":"",
       "name":"Ware Island Airport",
       "city":"Clanton",
       "state":"Alabama",
       "country":"US",
       "elevation":344,
       "lat":32.9459991455,
       "lon":-86.5139007568,
       "tz":"America/Chicago"
    },
    {
       "id":"01CL",
       "icao":"01CL",
       "iata":"",
       "name":"Swansboro Country Airport",
       "city":"Placerville",
       "state":"California",
       "country":"US",
       "elevation":2594,
       "lat":38.7999000549,
       "lon":-120.7340011597,
       "tz":"America/Los_Angeles"
    },
    {
       "id":"01FA",
       "icao":"01FA",
       "iata":"",
       "name":"Rybolt Ranch Airport",
       "city":"Orlando",
       "state":"Florida",
       "country":"US",
       "elevation":55,
       "lat":28.5893993378,
       "lon":-81.144203186,
       "tz":"America/New_York"
    },
    {
       "id":"01FL",
       "icao":"01FL",
       "iata":"",
       "name":"Cedar Knoll Flying Ranch Airport",
       "city":"Geneva",
       "state":"Florida",
       "country":"US",
       "elevation":19,
       "lat":28.7819004059,
       "lon":-81.1592025757,
       "tz":"America/New_York"
    },
    {
       "id":"01GE",
       "icao":"01GE",
       "iata":"",
       "name":"The Farm Airport",
       "city":"Wrightsville",
       "state":"Georgia",
       "country":"US",
       "elevation":375,
       "lat":32.6744003296,
       "lon":-82.7711029053,
       "tz":"America/New_York"
    },
    {
       "id":"01IA",
       "icao":"01IA",
       "iata":"",
       "name":"Stender Airport",
       "city":"Maysville",
       "state":"Iowa",
       "country":"US",
       "elevation":725,
       "lat":41.6610984802,
       "lon":-90.7413024902,
       "tz":"America/Chicago"
    },
    {
       "id":"01ID",
       "icao":"01ID",
       "iata":"",
       "name":"Lava Hot Springs Airport",
       "city":"Lava Hot Springs",
       "state":"Idaho",
       "country":"US",
       "elevation":5268,
       "lat":42.6082000732,
       "lon":-112.0319976807,
       "tz":"America/Boise"
    },
    {
       "id":"01II",
       "icao":"01II",
       "iata":"",
       "name":"Myers Field",
       "city":"Lizton",
       "state":"Indiana",
       "country":"US",
       "elevation":950,
       "lat":39.8849983215,
       "lon":-86.5066986084,
       "tz":"America/Indiana/Indianapolis"
    },
    {
       "id":"01IS",
       "icao":"01IS",
       "iata":"",
       "name":"William E. Koenig Airport",
       "city":"Dow",
       "state":"Illinois",
       "country":"US",
       "elevation":670,
       "lat":39.0162010193,
       "lon":-90.3181991577,
       "tz":"America/Chicago"
    },
    {
       "id":"01KS",
       "icao":"01KS",
       "iata":"",
       "name":"Flying N Ranch Airport",
       "city":"Lost Springs",
       "state":"Kansas",
       "country":"US",
       "elevation":1485,
       "lat":38.540599823,
       "lon":-97.0033035278,
       "tz":"America/Chicago"
    },
    {
       "id":"01LA",
       "icao":"01LA",
       "iata":"",
       "name":"Barham Airport",
       "city":"Oak Ridge",
       "state":"Louisiana",
       "country":"US",
       "elevation":90,
       "lat":32.638999939,
       "lon":-91.7736968994,
       "tz":"America/Chicago"
    },
    {
       "id":"01LL",
       "icao":"01LL",
       "iata":"",
       "name":"Schumaier Restricted Landing Area",
       "city":"Pinckneyville",
       "state":"Illinois",
       "country":"US",
       "elevation":555,
       "lat":38.1258010864,
       "lon":-89.4638977051,
       "tz":"America/Chicago"
    },
    {
       "id":"01LS",
       "icao":"01LS",
       "iata":"",
       "name":"Country Breeze Airport",
       "city":"Slaughter",
       "state":"Louisiana",
       "country":"US",
       "elevation":125,
       "lat":30.7059993744,
       "lon":-91.0774002075,
       "tz":"America/Chicago"
    },
    {
       "id":"01MT",
       "icao":"01MT",
       "iata":"",
       "name":"Crystal Lakes Resort Airport",
       "city":"Fortine",
       "state":"Montana",
       "country":"US",
       "elevation":3141,
       "lat":48.789100647,
       "lon":-114.8799972534,
       "tz":"America/Denver"
    },
    {
       "id":"01NC",
       "icao":"01NC",
       "iata":"",
       "name":"Topsail Airpark",
       "city":"Holly Ridge",
       "state":"North Carolina",
       "country":"US",
       "elevation":65,
       "lat":34.4752998352,
       "lon":-77.5813980103,
       "tz":"America/New_York"
    },
    {
       "id":"01NE",
       "icao":"01NE",
       "iata":"",
       "name":"Detour Airport",
       "city":"Wellfleet",
       "state":"Nebraska",
       "country":"US",
       "elevation":3000,
       "lat":40.8436012268,
       "lon":-100.6529998779,
       "tz":"America/Chicago"
    },
    {
       "id":"01NH",
       "icao":"01NH",
       "iata":"",
       "name":"Moore Airfield",
       "city":"Enfield",
       "state":"New Hampshire",
       "country":"US",
       "elevation":835,
       "lat":43.6445007324,
       "lon":-72.0869979858,
       "tz":"America/New_York"
    },
    {
       "id":"01NM",
       "icao":"01NM",
       "iata":"",
       "name":"Champion Ranch Airport",
       "city":"Artesia",
       "state":"New Mexico",
       "country":"US",
       "elevation":3630,
       "lat":33.008611,
       "lon":-104.540278,
       "tz":"America/Denver"
    },
    {
       "id":"01NV",
       "icao":"01NV",
       "iata":"",
       "name":"Lantana Ranch Airport",
       "city":"Yerington",
       "state":"Nevada",
       "country":"US",
       "elevation":4600,
       "lat":38.7639007568,
       "lon":-119.0270004272,
       "tz":"America/Los_Angeles"
    },
    {
       "id":"01OK",
       "icao":"01OK",
       "iata":"",
       "name":"Lawrence Airport",
       "city":"Eakly",
       "state":"Oklahoma",
       "country":"US",
       "elevation":1525,
       "lat":35.2944984436,
       "lon":-98.6364974976,
       "tz":"America/Chicago"
    },
    {
       "id":"01OR",
       "icao":"01OR",
       "iata":"",
       "name":"Red & White Flying Service Airport",
       "city":"Silver Lake",
       "state":"Oregon",
       "country":"US",
       "elevation":4346,
       "lat":43.1193008423,
       "lon":-121.0449981689,
       "tz":"America/Los_Angeles"
    },
    {
       "id":"01PN",
       "icao":"01PN",
       "iata":"",
       "name":"Bierly(Personal Use) Airport",
       "city":"Bellefonte",
       "state":"Pennsylvania",
       "country":"US",
       "elevation":960,
       "lat":40.9305992126,
       "lon":-77.738899231,
       "tz":"America/New_York"
    },
    {
       "id":"01PS",
       "icao":"01PS",
       "iata":"",
       "name":"Nort's Resort Airport",
       "city":"Meshoppen",
       "state":"Pennsylvania",
       "country":"US",
       "elevation":1040,
       "lat":41.5959014893,
       "lon":-76.0296020508,
       "tz":"America/New_York"
    },
    {
       "id":"01SC",
       "icao":"01SC",
       "iata":"",
       "name":"York Airport",
       "city":"York",
       "state":"South Carolina",
       "country":"US",
       "elevation":779,
       "lat":35.0321006775,
       "lon":-81.2527999878,
       "tz":"America/New_York"
    },
    {
       "id":"01TE",
       "icao":"01TE",
       "iata":"",
       "name":"Smith Field",
       "city":"Forney",
       "state":"Texas",
       "country":"US",
       "elevation":505,
       "lat":32.7375984192,
       "lon":-96.4280014038,
       "tz":"America/Chicago"
    },
    {
       "id":"01TN",
       "icao":"01TN",
       "iata":"",
       "name":"Colonial Air Park",
       "city":"Collierville",
       "state":"Tennessee",
       "country":"US",
       "elevation":370,
       "lat":34.9958992004,
       "lon":-89.7305984497,
       "tz":"America/Chicago"
    },
    {
       "id":"01TX",
       "icao":"01TX",
       "iata":"",
       "name":"Mims Farm Ultralightport",
       "city":"Waxahachie",
       "state":"Texas",
       "country":"US",
       "elevation":610,
       "lat":32.3875999451,
       "lon":-96.8775024414,
       "tz":"America/Chicago"
    },
    {
       "id":"01UT",
       "icao":"01UT",
       "iata":"",
       "name":"La Sal Junction Airport",
       "city":"La Sal",
       "state":"Utah",
       "country":"US",
       "elevation":6000,
       "lat":38.3083000183,
       "lon":-109.3960037231,
       "tz":"America/Denver"
    },
    {
       "id":"01VA",
       "icao":"01VA",
       "iata":"",
       "name":"Pickles Airport",
       "city":"Berryville",
       "state":"Virginia",
       "country":"US",
       "elevation":500,
       "lat":39.125,
       "lon":-77.9250030518,
       "tz":"America/New_York"
    },
    {
       "id":"01WI",
       "icao":"01WI",
       "iata":"",
       "name":"Prehn Cranberry Company Airport",
       "city":"Tomah",
       "state":"Wisconsin",
       "country":"US",
       "elevation":930,
       "lat":44.0099983215,
       "lon":-90.3891983032,
       "tz":"America/Chicago"
    },
    {
       "id":"01WY",
       "icao":"01WY",
       "iata":"",
       "name":"Keyhole Airport",
       "city":"Moorcroft",
       "state":"Wyoming",
       "country":"US",
       "elevation":4250,
       "lat":44.3471984863,
       "lon":-104.8109970093,
       "tz":"America/Denver"
    },
    {
       "id":"02AK",
       "icao":"02AK",
       "iata":"",
       "name":"Rustic Wilderness Airport",
       "city":"Willow",
       "state":"Alaska",
       "country":"US",
       "elevation":190,
       "lat":61.8768997192,
       "lon":-150.0980072021,
       "tz":"America/Anchorage"
    },
    {
       "id":"02AL",
       "icao":"02AL",
       "iata":"",
       "name":"Bass Field",
       "city":"Foley",
       "state":"Alabama",
       "country":"US",
       "elevation":61,
       "lat":30.3715000153,
       "lon":-87.7643966675,
       "tz":"America/Chicago"
    },
    {
       "id":"02AR",
       "icao":"02AR",
       "iata":"",
       "name":"Three Rivers Airport",
       "city":"Little Rock",
       "state":"Arkansas",
       "country":"US",
       "elevation":264,
       "lat":34.8224449158,
       "lon":-92.4444198608,
       "tz":"America/Chicago"
    },
    {
       "id":"02AZ",
       "icao":"02AZ",
       "iata":"",
       "name":"Winchester Farm Airstrip",
       "city":"Willcox",
       "state":"Arizona",
       "country":"US",
       "elevation":4200,
       "lat":32.3763999939,
       "lon":-109.93699646,
       "tz":"America/Phoenix"
    },
    {
       "id":"02CD",
       "icao":"02CD",
       "iata":"",
       "name":"Shannon Field",
       "city":"Clarksdale",
       "state":"Mississippi",
       "country":"US",
       "elevation":165,
       "lat":34.1296005249,
       "lon":-90.5240020752,
       "tz":"America/Chicago"
    },
    {
       "id":"02CL",
       "icao":"02CL",
       "iata":"",
       "name":"Conover Air Lodge Airport",
       "city":"Frazier Park",
       "state":"California",
       "country":"US",
       "elevation":5160,
       "lat":34.761100769,
       "lon":-119.0589981079,
       "tz":"America/Los_Angeles"
    },
    {
       "id":"02CO",
       "icao":"02CO",
       "iata":"",
       "name":"Mc Cullough Airport",
       "city":"Monte Vista",
       "state":"Colorado",
       "country":"US",
       "elevation":7615,
       "lat":37.6432991028,
       "lon":-106.04699707,
       "tz":"America/Denver"
    },
    {
       "id":"02FA",
       "icao":"02FA",
       "iata":"",
       "name":"Osborn Airfield",
       "city":"Groveland",
       "state":"Florida",
       "country":"US",
       "elevation":121,
       "lat":28.5266990662,
       "lon":-81.8748016357,
       "tz":"America/New_York"
    },
    {
       "id":"02FL",
       "icao":"02FL",
       "iata":"",
       "name":"Cuchens Airport",
       "city":"Defuniak Springs",
       "state":"Florida",
       "country":"US",
       "elevation":215,
       "lat":30.642778,
       "lon":-86.123889,
       "tz":"America/Chicago"
    },
    {
       "id":"02GA",
       "icao":"02GA",
       "iata":"",
       "name":"Doug Bolton Field",
       "city":"Commerce",
       "state":"Georgia",
       "country":"US",
       "elevation":884,
       "lat":34.2025985718,
       "lon":-83.4290008545,
       "tz":"America/New_York"
    },
    {
       "id":"02GE",
       "icao":"02GE",
       "iata":"",
       "name":"Etowah Fields Airport",
       "city":"Euharlee",
       "state":"Georgia",
       "country":"US",
       "elevation":710,
       "lat":34.1753005981,
       "lon":-84.9244003296,
       "tz":"America/New_York"
    },
    {
       "id":"02ID",
       "icao":"02ID",
       "iata":"",
       "name":"Morgan Ranch Airport",
       "city":"Cascade",
       "state":"Idaho",
       "country":"US",
       "elevation":5634,
       "lat":44.5555000305,
       "lon":-115.3050003052,
       "tz":"America/Boise"
    },
    {
       "id":"02II",
       "icao":"02II",
       "iata":"",
       "name":"King Ultralightport",
       "city":"Westfield",
       "state":"Indiana",
       "country":"US",
       "elevation":925,
       "lat":40.0623016357,
       "lon":-86.2105026245,
       "tz":"America/Indiana/Indianapolis"
    },
    {
       "id":"02IN",
       "icao":"02IN",
       "iata":"",
       "name":"Diamond P. Field",
       "city":"Muncie",
       "state":"Indiana",
       "country":"US",
       "elevation":904,
       "lat":40.2089004517,
       "lon":-85.540802002,
       "tz":"America/Indiana/Indianapolis"
    },
    {
       "id":"02KS",
       "icao":"02KS",
       "iata":"",
       "name":"Jmj Landing Airport",
       "city":"St Marys",
       "state":"Kansas",
       "country":"US",
       "elevation":1170,
       "lat":39.2221984863,
       "lon":-96.0552978516,
       "tz":"America/Chicago"
    },
    {
       "id":"02ME",
       "icao":"02ME",
       "iata":"",
       "name":"Nadeaus' Airfield",
       "city":"Acton",
       "state":"Maine",
       "country":"US",
       "elevation":700,
       "lat":43.5373001099,
       "lon":-70.929397583,
       "tz":"America/New_York"
    },
    {
       "id":"02MI",
       "icao":"02MI",
       "iata":"",
       "name":"Fairplains Airpark",
       "city":"Greenville",
       "state":"Michigan",
       "country":"US",
       "elevation":850,
       "lat":43.1571006775,
       "lon":-85.1484985352,
       "tz":"America/Detroit"
    },
    {
       "id":"02MN",
       "icao":"02MN",
       "iata":"",
       "name":"Greenbush Municipal Airport",
       "city":"Greenbush",
       "state":"Minnesota",
       "country":"US",
       "elevation":1070,
       "lat":48.6833000183,
       "lon":-96.1920013428,
       "tz":"America/Chicago"
    },
    {
       "id":"02MO",
       "icao":"02MO",
       "iata":"",
       "name":"Troy Airpark",
       "city":"Troy",
       "state":"Missouri",
       "country":"US",
       "elevation":650,
       "lat":39.0499992371,
       "lon":-91.0335006714,
       "tz":"America/Chicago"
    },
    {
       "id":"02MS",
       "icao":"02MS",
       "iata":"",
       "name":"Watts Field",
       "city":"Rochdale",
       "state":"Mississippi",
       "country":"US",
       "elevation":153,
       "lat":34.1001014709,
       "lon":-90.8468017578,
       "tz":"America/Chicago"
    },
    {
       "id":"02MT",
       "icao":"02MT",
       "iata":"",
       "name":"Barrett Field",
       "city":"Cascade",
       "state":"Montana",
       "country":"US",
       "elevation":3350,
       "lat":47.2374000549,
       "lon":-111.7419967651,
       "tz":"America/Denver"
    },
    {
       "id":"02MU",
       "icao":"02MU",
       "iata":"",
       "name":"Timber Line Airpark",
       "city":"Cassville",
       "state":"Missouri",
       "country":"US",
       "elevation":1550,
       "lat":36.6542015076,
       "lon":-93.7974014282,
       "tz":"America/Chicago"
    },
    {
       "id":"02NE",
       "icao":"02NE",
       "iata":"",
       "name":"Benes Service Airport",
       "city":"Valparaiso",
       "state":"Nebraska",
       "country":"US",
       "elevation":1550,
       "lat":41.0745010376,
       "lon":-96.9045028687,
       "tz":"America/Chicago"
    },
    {
       "id":"02NV",
       "icao":"02NV",
       "iata":"",
       "name":"Paiute Meadows Airport",
       "city":"Winnemucca",
       "state":"Nevada",
       "country":"US",
       "elevation":4443,
       "lat":41.3032989502,
       "lon":-118.5979995728,
       "tz":"America/Los_Angeles"
    },
    {
       "id":"02OH",
       "icao":"02OH",
       "iata":"",
       "name":"Zimmerman Airport",
       "city":"Fremont",
       "state":"Ohio",
       "country":"US",
       "elevation":614,
       "lat":41.3763999939,
       "lon":-83.0832977295,
       "tz":"America/New_York"
    },
    {
       "id":"02OI",
       "icao":"02OI",
       "iata":"",
       "name":"Murtha Airport",
       "city":"Conneaut",
       "state":"Ohio",
       "country":"US",
       "elevation":950,
       "lat":41.8019981384,
       "lon":-80.5653991699,
       "tz":"America/New_York"
    },
    {
       "id":"02OR",
       "icao":"02OR",
       "iata":"",
       "name":"Rowena Dell Airport",
       "city":"The Dalles",
       "state":"Oregon",
       "country":"US",
       "elevation":705,
       "lat":45.6814994812,
       "lon":-121.3160018921,
       "tz":"America/Los_Angeles"
    },
    {
       "id":"02PR",
       "icao":"02PR",
       "iata":"",
       "name":"Cuylers Airport",
       "city":"Vega Baja",
       "state":"Vega Baja",
       "country":"PR",
       "elevation":15,
       "lat":18.4533004761,
       "lon":-66.366897583,
       "tz":"America/Puerto_Rico"
    },
    {
       "id":"02PS",
       "icao":"02PS",
       "iata":"",
       "name":"Hughes Ultralightport",
       "city":"Tioga",
       "state":"Pennsylvania",
       "country":"US",
       "elevation":1700,
       "lat":41.9006004333,
       "lon":-77.2303009033,
       "tz":"America/New_York"
    },
    {
       "id":"02SC",
       "icao":"02SC",
       "iata":"",
       "name":"Harpers Airport",
       "city":"Estill",
       "state":"South Carolina",
       "country":"US",
       "elevation":111,
       "lat":32.7584991455,
       "lon":-81.2248001099,
       "tz":"America/New_York"
    },
    {
       "id":"02TN",
       "icao":"02TN",
       "iata":"",
       "name":"Ellis Field",
       "city":"Murfreesboro",
       "state":"Tennessee",
       "country":"US",
       "elevation":840,
       "lat":35.7806015015,
       "lon":-86.584197998,
       "tz":"America/Chicago"
    },
    {
       "id":"02TS",
       "icao":"02TS",
       "iata":"",
       "name":"El Tesoro Ranch Airport",
       "city":"Charlotte",
       "state":"Texas",
       "country":"US",
       "elevation":334,
       "lat":28.66264166,
       "lon":-98.72309444,
       "tz":"America/Chicago"
    },
    {
       "id":"02TX",
       "icao":"02TX",
       "iata":"",
       "name":"The Palms At Kitty Hawk Airport",
       "city":"New Home",
       "state":"Texas",
       "country":"US",
       "elevation":3235,
       "lat":33.3704032898,
       "lon":-101.92288208,
       "tz":"America/Chicago"
    },
    {
       "id":"02UT",
       "icao":"02UT",
       "iata":"",
       "name":"Lucin Airport",
       "city":"Lucin",
       "state":"Utah",
       "country":"US",
       "elevation":4412,
       "lat":41.3662986755,
       "lon":-113.8430023193,
       "tz":"America/Denver"
    },
    {
       "id":"02VA",
       "icao":"02VA",
       "iata":"",
       "name":"The Greenhouse Airport",
       "city":"Culpeper",
       "state":"Virginia",
       "country":"US",
       "elevation":320,
       "lat":38.4356994629,
       "lon":-77.8572006226,
       "tz":"America/New_York"
    },
    {
       "id":"02WA",
       "icao":"02WA",
       "iata":"",
       "name":"Cawleys South Prairie Airport",
       "city":"South Prairie",
       "state":"Washington",
       "country":"US",
       "elevation":690,
       "lat":47.1523017883,
       "lon":-122.09400177,
       "tz":"America/Los_Angeles"
    },
    {
       "id":"02WI",
       "icao":"02WI",
       "iata":"",
       "name":"Beer Airport",
       "city":"Hudson",
       "state":"Wisconsin",
       "country":"US",
       "elevation":920,
       "lat":45.0318984985,
       "lon":-92.6557998657,
       "tz":"America/Chicago"
    },
    {
       "id":"02WN",
       "icao":"02WN",
       "iata":"",
       "name":"Fowler Field",
       "city":"Tonasket",
       "state":"Washington",
       "country":"US",
       "elevation":2150,
       "lat":48.7458000183,
       "lon":-119.3190002441,
       "tz":"America/Los_Angeles"
    },
    {
       "id":"02XS",
       "icao":"02XS",
       "iata":"",
       "name":"Seidel Ranch, Airport",
       "city":"Elroy",
       "state":"Texas",
       "country":"US",
       "elevation":510,
       "lat":30.1476993561,
       "lon":-97.6628036499,
       "tz":"America/Chicago"
    },
    {
       "id":"03AZ",
       "icao":"03AZ",
       "iata":"",
       "name":"Thompson International Aviation Airport",
       "city":"Hereford",
       "state":"Arizona",
       "country":"US",
       "elevation":4275,
       "lat":31.4333992004,
       "lon":-110.0839996338,
       "tz":"America/Phoenix"
    },
    {
       "id":"03CO",
       "icao":"03CO",
       "iata":"",
       "name":"Kugel-Strong Airport",
       "city":"Platteville",
       "state":"Colorado",
       "country":"US",
       "elevation":4950,
       "lat":40.2125015259,
       "lon":-104.744003296,
       "tz":"America/Denver"
    },
    {
       "id":"03FA",
       "icao":"03FA",
       "iata":"",
       "name":"Lake Persimmon Airstrip",
       "city":"Lake Placid",
       "state":"Florida",
       "country":"US",
       "elevation":70,
       "lat":27.353099823,
       "lon":-81.4080963135,
       "tz":"America/New_York"
    },
    {
       "id":"03FD",
       "icao":"03FD",
       "iata":"",
       "name":"Tharpe Airport",
       "city":"Bonifay",
       "state":"Florida",
       "country":"US",
       "elevation":115,
       "lat":30.8288002014,
       "lon":-85.7310028076,
       "tz":"America/Chicago"
    },
    {
       "id":"03IA",
       "icao":"03IA",
       "iata":"",
       "name":"East Field",
       "city":"Montezuma",
       "state":"Iowa",
       "country":"US",
       "elevation":954,
       "lat":41.5819015503,
       "lon":-92.4613037109,
       "tz":"America/Chicago"
    },
    {
       "id":"03ID",
       "icao":"03ID",
       "iata":"",
       "name":"Flying Y Ranch Airport",
       "city":"Council",
       "state":"Idaho",
       "country":"US",
       "elevation":3180,
       "lat":44.7943000793,
       "lon":-116.5329971313,
       "tz":"America/Boise"
    },
    {
       "id":"03II",
       "icao":"03II",
       "iata":"",
       "name":"Davis Field Ultralightport",
       "city":"Mount Vernon",
       "state":"Indiana",
       "country":"US",
       "elevation":465,
       "lat":37.9620018005,
       "lon":-87.7789001465,
       "tz":"America/Chicago"
    },
    {
       "id":"03IL",
       "icao":"03IL",
       "iata":"",
       "name":"Wix Airport",
       "city":"Monee",
       "state":"Illinois",
       "country":"US",
       "elevation":750,
       "lat":41.4023017883,
       "lon":-87.8167037964,
       "tz":"America/Chicago"
    },
    {
       "id":"03IN",
       "icao":"03IN",
       "iata":"",
       "name":"Heinzman Airport",
       "city":"Arcadia",
       "state":"Indiana",
       "country":"US",
       "elevation":850,
       "lat":40.1800003052,
       "lon":-86.0124969482,
       "tz":"America/Indiana/Indianapolis"
    },
    {
       "id":"03KY",
       "icao":"03KY",
       "iata":"",
       "name":"Flying H Farms Airport",
       "city":"Henderson",
       "state":"Kentucky",
       "country":"US",
       "elevation":385,
       "lat":37.7916984558,
       "lon":-87.5413970947,
       "tz":"America/Chicago"
    },
    {
       "id":"03MA",
       "icao":"03MA",
       "iata":"",
       "name":"Hadley Airport",
       "city":"Hadley",
       "state":"Massachusetts",
       "country":"US",
       "elevation":150,
       "lat":42.3931007385,
       "lon":-72.5520019531,
       "tz":"America/New_York"
    },
    {
       "id":"03ME",
       "icao":"03ME",
       "iata":"",
       "name":"Maple Ridge Airpo,rt",
       "city":"Harrison",
       "state":"Maine",
       "country":"US",
       "elevation":556,
       "lat":44.0842018127,
       "lon":-70.6272964478,
       "tz":"America/New_York"
    },
    {
       "id":"03MN",
       "icao":"03MN",
       "iata":"",
       "name":"Nauerth Land Ranch Airport",
       "city":"Lakefield",
       "state":"Minnesota",
       "country":"US",
       "elevation":1435,
       "lat":43.6251983643,
       "lon":-95.2247009277,
       "tz":"America/Chicago"
    },
    {
       "id":"03MO",
       "icao":"03MO",
       "iata":"",
       "name":"Cahoochie Airport",
       "city":"Urbana",
       "state":"Missouri",
       "country":"US",
       "elevation":1010,
       "lat":37.8844985962,
       "lon":-93.1315994263,
       "tz":"America/Chicago"
    },
    {
       "id":"03MT",
       "icao":"03MT",
       "iata":"",
       "name":"Cascade Airport",
       "city":"Cascade",
       "state":"Montana",
       "country":"US",
       "elevation":3580,
       "lat":47.2708015442,
       "lon":-111.7220001221,
       "tz":"America/Denver"
    },
    {
       "id":"03MU",
       "icao":"03MU",
       "iata":"",
       "name":"Mc Donnell Airport",
       "city":"Archie",
       "state":"Missouri",
       "country":"US",
       "elevation":874,
       "lat":38.4925003052,
       "lon":-94.4124984741,
       "tz":"America/Chicago"
    },
    {
       "id":"03NC",
       "icao":"03NC",
       "iata":"",
       "name":"Pilots Ridge Airpo,rt",
       "city":"Carolina Beach",
       "state":"North Carolina",
       "country":"US",
       "elevation":35,
       "lat":34.1043014526,
       "lon":-77.9041976929,
       "tz":"America/New_York"
    },
    {
       "id":"03ND",
       "icao":"03ND",
       "iata":"",
       "name":"Olafson Brothers Airport",
       "city":"Edinburg",
       "state":"North Dakota",
       "country":"US",
       "elevation":1045,
       "lat":48.6263999939,
       "lon":-97.8290023804,
       "tz":"America/Chicago"
    },
    {
       "id":"03NE",
       "icao":"03NE",
       "iata":"",
       "name":"Hyde Ranch Airport",
       "city":"Comstock",
       "state":"Nebraska",
       "country":"US",
       "elevation":2430,
       "lat":41.5463981628,
       "lon":-99.331199646,
       "tz":"America/Chicago"
    },
    {
       "id":"03NV",
       "icao":"03NV",
       "iata":"",
       "name":"Llama Ranch Airport",
       "city":"Ruby Valley",
       "state":"Nevada",
       "country":"US",
       "elevation":6120,
       "lat":40.584400177,
       "lon":-115.297996521,
       "tz":"America/Los_Angeles"
    },
    {
       "id":"03NY",
       "icao":"03NY",
       "iata":"",
       "name":"Talmage Field",
       "city":"Riverhead",
       "state":"New York",
       "country":"US",
       "elevation":95,
       "lat":40.9584007263,
       "lon":-72.716796875,
       "tz":"America/New_York"
    },
    {
       "id":"03OH",
       "icao":"03OH",
       "iata":"",
       "name":"Gibbs Field",
       "city":"Fremont",
       "state":"Ohio",
       "country":"US",
       "elevation":580,
       "lat":41.4183998108,
       "lon":-83.0174026489,
       "tz":"America/New_York"
    },
    {
       "id":"03OK",
       "icao":"03OK",
       "iata":"",
       "name":"Sahoma Lake Airport",
       "city":"Sapulpa",
       "state":"Oklahoma",
       "country":"US",
       "elevation":890,
       "lat":36.0411987305,
       "lon":-96.1613998413,
       "tz":"America/Chicago"
    },
    {
       "id":"03OR",
       "icao":"03OR",
       "iata":"",
       "name":"Powwatka Ridge Airpo,rt",
       "city":"Troy",
       "state":"Oregon",
       "country":"US",
       "elevation":3340,
       "lat":45.8554000854,
       "lon":-117.4840011597,
       "tz":"America/Los_Angeles"
    },
    {
       "id":"03PS",
       "icao":"03PS",
       "iata":"",
       "name":"Ziggy's Field",
       "city":"Bellefonte",
       "state":"Pennsylvania",
       "country":"US",
       "elevation":1050,
       "lat":40.8499984741,
       "lon":-77.9056015015,
       "tz":"America/New_York"
    },
    {
       "id":"03TA",
       "icao":"03TA",
       "iata":"",
       "name":"Gay Hill Farm Airport",
       "city":"Gay Hill",
       "state":"Texas",
       "country":"US",
       "elevation":505,
       "lat":30.2626991272,
       "lon":-96.5001983643,
       "tz":"America/Chicago"
    },
    {
       "id":"03TE",
       "icao":"03TE",
       "iata":"",
       "name":"Barronena Ranch Airport",
       "city":"Hebbronville",
       "state":"Texas",
       "country":"US",
       "elevation":600,
       "lat":27.4911003113,
       "lon":-98.6695022583,
       "tz":"America/Chicago"
    },
    {
       "id":"03UT",
       "icao":"03UT",
       "iata":"",
       "name":"A Z Minerals Corporation Airport",
       "city":"Mexican Hat",
       "state":"Utah",
       "country":"US",
       "elevation":5315,
       "lat":37.1208000183,
       "lon":-109.986000061,
       "tz":"America/Denver"
    },
    {
       "id":"03WA",
       "icao":"03WA",
       "iata":"",
       "name":"Spangle Field",
       "city":"Spangle",
       "state":"Washington",
       "country":"US",
       "elevation":2440,
       "lat":47.4081993103,
       "lon":-117.3720016479,
       "tz":"America/Los_Angeles"
    },
    {
       "id":"03WI",
       "icao":"03WI",
       "iata":"",
       "name":"Zink Airport",
       "city":"Berlin",
       "state":"Wisconsin",
       "country":"US",
       "elevation":880,
       "lat":44.0275001526,
       "lon":-88.880897522,
       "tz":"America/Chicago"
    },
    {
       "id":"03WN",
       "icao":"03WN",
       "iata":"",
       "name":"Aerostone Ranch Airport",
       "city":"Goldendale",
       "state":"Washington",
       "country":"US",
       "elevation":2320,
       "lat":45.875,
       "lon":-120.6699981689,
       "tz":"America/Los_Angeles"
    },
    {
       "id":"03XS",
       "icao":"03XS",
       "iata":"",
       "name":"Creekside Airpor,t",
       "city":"Mertzon",
       "state":"Texas",
       "country":"US",
       "elevation":2100,
       "lat":31.3180999756,
       "lon":-100.7539978027,
       "tz":"America/Chicago"
    },
    {
       "id":"04AZ",
       "icao":"04AZ",
       "iata":"",
       "name":"Chinle Airport",
       "city":"Chinle",
       "state":"Arizona",
       "country":"US",
       "elevation":5515,
       "lat":36.1542015076,
       "lon":-109.5510025024,
       "tz":"America/Denver"
    },
    {
       "id":"04CA",
       "icao":"04CA",
       "iata":"",
       "name":"Gray Butte Field",
       "city":"Palmdale",
       "state":"California",
       "country":"US",
       "elevation":3020,
       "lat":34.5638999939,
       "lon":-117.6750030518,
       "tz":"America/Los_Angeles"
    },
    {
       "id":"04CL",
       "icao":"04CL",
       "iata":"",
       "name":"Hunt's Sky Ranch Airport",
       "city":"Julian",
       "state":"California",
       "country":"US",
       "elevation":2310,
       "lat":33.0816993713,
       "lon":-116.4410018921,
       "tz":"America/Los_Angeles"
    },
    {
       "id":"04FA",
       "icao":"04FA",
       "iata":"",
       "name":"Richards Field",
       "city":"Homestead",
       "state":"Florida",
       "country":"US",
       "elevation":9,
       "lat":25.5587005615,
       "lon":-80.5150985718,
       "tz":"America/New_York"
    },
    {
       "id":"04FL",
       "icao":"04FL",
       "iata":"",
       "name":"Cross Creek Farms Airport",
       "city":"Ormond",
       "state":"Florida",
       "country":"US",
       "elevation":30,
       "lat":29.2394008636,
       "lon":-81.2220001221,
       "tz":"America/New_York"
    },
    {
       "id":"04IA",
       "icao":"04IA",
       "iata":"",
       "name":"Middlekoop ,Airport",
       "city":"Packwood",
       "state":"Iowa",
       "country":"US",
       "elevation":801,
       "lat":41.0882987976,
       "lon":-92.0546035767,
       "tz":"America/Chicago"
    },
    {
       "id":"04ID",
       "icao":"04ID",
       "iata":"",
       "name":"Lanham Field",
       "city":"Emmett",
       "state":"Idaho",
       "country":"US",
       "elevation":2343,
       "lat":43.8777008057,
       "lon":-116.5370025635,
       "tz":"America/Boise"
    },
    {
       "id":"04II",
       "icao":"04II",
       "iata":"",
       "name":"Turkey Run Airport",
       "city":"New Haven",
       "state":"Indiana",
       "country":"US",
       "elevation":765,
       "lat":41.1305999756,
       "lon":-84.994102478,
       "tz":"America/Indiana/Indianapolis"
    },
    {
       "id":"04IL",
       "icao":"04IL",
       "iata":"",
       "name":"Schertz Aerial Service - Hudson Airport",
       "city":"Hudson",
       "state":"Illinois",
       "country":"US",
       "elevation":755,
       "lat":40.6375007629,
       "lon":-89.0070037842,
       "tz":"America/Chicago"
    },
    {
       "id":"04IS",
       "icao":"04IS",
       "iata":"",
       "name":"Van Gorder Airport",
       "city":"Mansfield",
       "state":"Illinois",
       "country":"US",
       "elevation":728,
       "lat":40.1786003113,
       "lon":-88.5690002441,
       "tz":"America/Chicago"
    },
    {
       "id":"04KY",
       "icao":"04KY",
       "iata":"",
       "name":"Natchez Trace Farm Airport",
       "city":"Hiseville",
       "state":"Kentucky",
       "country":"US",
       "elevation":710,
       "lat":37.1351013184,
       "lon":-85.7893981934,
       "tz":"America/Chicago"
    },
    {
       "id":"04LL",
       "icao":"04LL",
       "iata":"",
       "name":"Brunner Airport",
       "city":"West Dundee",
       "state":"Illinois",
       "country":"US",
       "elevation":750,
       "lat":42.136100769,
       "lon":-88.2875976563,
       "tz":"America/Chicago"
    },
    {
       "id":"04ME",
       "icao":"04ME",
       "iata":"",
       "name":"Beech Hill Airport",
       "city":"Mercer",
       "state":"Maine",
       "country":"US",
       "elevation":625,
       "lat":44.6666984558,
       "lon":-69.8938980103,
       "tz":"America/New_York"
    },
    {
       "id":"04MI",
       "icao":"04MI",
       "iata":"",
       "name":"Rapids Airway, Airport",
       "city":"Eaton Rapids",
       "state":"Michigan",
       "country":"US",
       "elevation":880,
       "lat":42.5345001221,
       "lon":-84.6283035278,
       "tz":"America/Detroit"
    },
    {
       "id":"04MN",
       "icao":"04MN",
       "iata":"",
       "name":"Helblad Airport",
       "city":"Kelliher",
       "state":"Minnesota",
       "country":"US",
       "elevation":1195,
       "lat":47.9858016968,
       "lon":-94.6868972778,
       "tz":"America/Chicago"
    },
    {
       "id":"04MO",
       "icao":"04MO",
       "iata":"",
       "name":"Airpark Private Airport",
       "city":"Vandalia",
       "state":"Missouri",
       "country":"US",
       "elevation":767,
       "lat":39.3012008667,
       "lon":-91.451499939,
       "tz":"America/Chicago"
    },
    {
       "id":"04MS",
       "icao":"04MS",
       "iata":"",
       "name":"Nick's Flying Service Inc Airport",
       "city":"Rolling Fork",
       "state":"Mississippi",
       "country":"US",
       "elevation":100,
       "lat":32.9396018982,
       "lon":-90.8373031616,
       "tz":"America/Chicago"
    },
    {
       "id":"04MT",
       "icao":"04MT",
       "iata":"",
       "name":"Pluhar Airport",
       "city":"Cohagen",
       "state":"Montana",
       "country":"US",
       "elevation":2715,
       "lat":47.1374977778,
       "lon":-106.488095,
       "tz":"America/Denver"
    },
    {
       "id":"04NE",
       "icao":"04NE",
       "iata":"",
       "name":"Mc Connell Field Airport",
       "city":"Sarben",
       "state":"Nebraska",
       "country":"US",
       "elevation":3035,
       "lat":41.1599998474,
       "lon":-101.299003601,
       "tz":"America/Denver"
    },
    {
       "id":"04NJ",
       "icao":"04NJ",
       "iata":"",
       "name":"Emmanuel Airport",
       "city":"Elmer",
       "state":"New Jersey",
       "country":"US",
       "elevation":155,
       "lat":39.5968017578,
       "lon":-75.2334976196,
       "tz":"America/New_York"
    },
    {
       "id":"04NV",
       "icao":"04NV",
       "iata":"",
       "name":"Kingston Ranch Airport",
       "city":"Sandy Valley",
       "state":"California",
       "country":"US",
       "elevation":2620,
       "lat":35.7555007935,
       "lon":-115.665000916,
       "tz":"America/Los_Angeles"
    }
]